[
    {
        "route_id": "i-tr4en",
        "route_number": 1205,
        "route_src": "Split",
        "route_desc": "Koprivnica",
        "arrival_time": "26:51:00",
        "departure_time": "26:56:00",
        "bikes_allowed": 0,
        "wheelchair_accessible": 0,
        "route_type": 2,
        "stops": [
            {
                "stop_id": "i-o959",
                "stop_name": "Split",
                "arrival_time": "17:55:00",
                "departure_time": "17:55:00",
                "latitude": 43.50473010420000008480201358906924724578857421875,
                "longitude": 16.442957801599998646224776166491210460662841796875,
                "sequence": 1
            },
            {
                "stop_id": "i-o960",
                "stop_name": "Split Predgrađe",
                "arrival_time": "18:00:00",
                "departure_time": "18:01:00",
                "latitude": 43.5221211066999984495851094834506511688232421875,
                "longitude": 16.455261729099998291303563746623694896697998046875,
                "sequence": 2
            },
            {
                "stop_id": "i-o951",
                "stop_name": "Kaštel Stari",
                "arrival_time": "18:34:00",
                "departure_time": "18:35:00",
                "latitude": 43.567388012099996785764233209192752838134765625,
                "longitude": 16.344813829399999605129778501577675342559814453125,
                "sequence": 3
            },
            {
                "stop_id": "i-o943",
                "stop_name": "Perković",
                "arrival_time": "19:25:00",
                "departure_time": "19:26:00",
                "latitude": 43.67558160979999826167841092683374881744384765625,
                "longitude": 16.1177946074000004728077328763902187347412109375,
                "sequence": 4
            },
            {
                "stop_id": "i-o910",
                "stop_name": "Knin",
                "arrival_time": "20:49:00",
                "departure_time": "20:51:00",
                "latitude": 44.03664695820000218873246922157704830169677734375,
                "longitude": 16.198356645400000530798934050835669040679931640625,
                "sequence": 5
            },
            {
                "stop_id": "i-o856",
                "stop_name": "Ogulin",
                "arrival_time": "24:44:00",
                "departure_time": "24:55:00",
                "latitude": 45.26604319399999809547807672061026096343994140625,
                "longitude": 15.23152494360000019923973013646900653839111328125,
                "sequence": 6
            },
            {
                "stop_id": "i-o521",
                "stop_name": "Zagreb Glavni kolodvor",
                "arrival_time": "26:51:00",
                "departure_time": "26:56:00",
                "latitude": 45.8044511798999991469827364198863506317138671875,
                "longitude": 15.9788116194000000547248419024981558322906494140625,
                "sequence": 7
            },
            {
                "stop_id": "i-o601",
                "stop_name": "Koprivnica",
                "arrival_time": "28:22:00",
                "departure_time": "28:39:00",
                "latitude": 46.16548386640000245506598730571568012237548828125,
                "longitude": 16.8168149565999982542052748613059520721435546875,
                "sequence": 8
            }
        ],
        "calendar": [
            {
                "monday": 1,
                "tuesday": 0,
                "wednesday": 1,
                "thursday": 0,
                "friday": 0,
                "saturday": 1,
                "sunday": 0
            }
        ]
    },
    {
        "route_id": "i-tr5",
        "route_number": 1220,
        "route_src": "Rijeka",
        "route_desc": "Zagreb Zapadni Kolodvor",
        "arrival_time": "19:49:00",
        "departure_time": "19:51:00",
        "bikes_allowed": 0,
        "wheelchair_accessible": 0,
        "route_type": 2,
        "stops": [
            {
                "stop_id": "i-o858",
                "stop_name": "Rijeka",
                "arrival_time": "14:55:00",
                "departure_time": "14:55:00",
                "latitude": 45.33008749689999916654414846561849117279052734375,
                "longitude": 14.4302604034000001576032445882447063922882080078125,
                "sequence": 1
            },
            {
                "stop_id": "i-o856",
                "stop_name": "Ogulin",
                "arrival_time": "17:04:00",
                "departure_time": "17:31:00",
                "latitude": 45.26604319399999809547807672061026096343994140625,
                "longitude": 15.23152494360000019923973013646900653839111328125,
                "sequence": 2
            },
            {
                "stop_id": "i-o697",
                "stop_name": "Zagreb Zapadni Kolodvor",
                "arrival_time": "19:49:00",
                "departure_time": "19:51:00",
                "latitude": 45.80912459679999670925099053420126438140869140625,
                "longitude": 15.954212549699999357244450948201119899749755859375,
                "sequence": 3
            }
        ],
        "calendar": [
            {
                "monday": 1,
                "tuesday": 0,
                "wednesday": 1,
                "thursday": 0,
                "friday": 0,
                "saturday": 1,
                "sunday": 0
            }
        ]
    },
    {
        "route_id": "i-tr6",
        "route_number": 1221,
        "route_src": "Zagreb Zapadni Kolodvor",
        "route_desc": "Rijeka",
        "arrival_time": "05:45:00",
        "departure_time": "05:47:00",
        "bikes_allowed": 0,
        "wheelchair_accessible": 0,
        "route_type": 2,
        "stops": [
            {
                "stop_id": "i-o697",
                "stop_name": "Zagreb Zapadni Kolodvor",
                "arrival_time": "05:45:00",
                "departure_time": "05:47:00",
                "latitude": 45.80912459679999670925099053420126438140869140625,
                "longitude": 15.954212549699999357244450948201119899749755859375,
                "sequence": 1
            },
            {
                "stop_id": "i-o856",
                "stop_name": "Ogulin",
                "arrival_time": "08:18:00",
                "departure_time": "08:37:00",
                "latitude": 45.26604319399999809547807672061026096343994140625,
                "longitude": 15.23152494360000019923973013646900653839111328125,
                "sequence": 2
            },
            {
                "stop_id": "i-o858",
                "stop_name": "Rijeka",
                "arrival_time": "10:40:00",
                "departure_time": "10:40:00",
                "latitude": 45.33008749689999916654414846561849117279052734375,
                "longitude": 14.4302604034000001576032445882447063922882080078125,
                "sequence": 3
            }
        ],
        "calendar": [
            {
                "monday": 1,
                "tuesday": 0,
                "wednesday": 1,
                "thursday": 0,
                "friday": 0,
                "saturday": 1,
                "sunday": 0
            }
        ]
    },
    {
        "route_id": "i-tr646ej",
        "route_number": 1272,
        "route_src": "Buzet",
        "route_desc": "Pula",
        "arrival_time": "09:39:00",
        "departure_time": "09:40:00",
        "bikes_allowed": 0,
        "wheelchair_accessible": 0,
        "route_type": 2,
        "stops": [
            {
                "stop_id": "i-o993",
                "stop_name": "Buzet",
                "arrival_time": "09:01:00",
                "departure_time": "09:23:00",
                "latitude": 45.42626604979999882516494835726916790008544921875,
                "longitude": 13.9851510930000006993623173912055790424346923828125,
                "sequence": 1
            },
            {
                "stop_id": "i-o970",
                "stop_name": "Lupoglav",
                "arrival_time": "09:39:00",
                "departure_time": "09:40:00",
                "latitude": 45.3555389280000014196048141457140445709228515625,
                "longitude": 14.1054264621000005064388460596092045307159423828125,
                "sequence": 2
            },
            {
                "stop_id": "i-o975",
                "stop_name": "Pazin",
                "arrival_time": "10:06:00",
                "departure_time": "10:12:00",
                "latitude": 45.23976653380000101378755061887204647064208984375,
                "longitude": 13.946151779699999195827331277541816234588623046875,
                "sequence": 3
            },
            {
                "stop_id": "i-o977",
                "stop_name": "Sveti Petar u šumi",
                "arrival_time": "10:25:00",
                "departure_time": "10:26:00",
                "latitude": 45.18508641409999881943804211914539337158203125,
                "longitude": 13.867220617899999268729516188614070415496826171875,
                "sequence": 4
            },
            {
                "stop_id": "i-o979",
                "stop_name": "Kanfanar",
                "arrival_time": "10:36:00",
                "departure_time": "10:37:00",
                "latitude": 45.1171465397000019947881810367107391357421875,
                "longitude": 13.8367383224000004560139132081530988216400146484375,
                "sequence": 5
            },
            {
                "stop_id": "i-o984",
                "stop_name": "Vodnjan",
                "arrival_time": "10:53:00",
                "departure_time": "10:54:00",
                "latitude": 44.96670730550000172343061421997845172882080078125,
                "longitude": 13.856073342700000239346991293132305145263671875,
                "sequence": 6
            },
            {
                "stop_id": "i-o986",
                "stop_name": "Pula",
                "arrival_time": "11:07:00",
                "departure_time": "11:07:00",
                "latitude": 44.87977229330000028539870982058346271514892578125,
                "longitude": 13.8470969326999995274718457949347794055938720703125,
                "sequence": 7
            }
        ],
        "calendar": [
            {
                "monday": 1,
                "tuesday": 1,
                "wednesday": 1,
                "thursday": 1,
                "friday": 1,
                "saturday": 1,
                "sunday": 1
            }
        ]
    },
    {
        "route_id": "i-tr644",
        "route_number": 1273,
        "route_src": "Pula",
        "route_desc": "Buzet",
        "arrival_time": "19:32:00",
        "departure_time": "19:33:00",
        "bikes_allowed": 0,
        "wheelchair_accessible": 0,
        "route_type": 2,
        "stops": [
            {
                "stop_id": "i-o986",
                "stop_name": "Pula",
                "arrival_time": "18:03:00",
                "departure_time": "18:03:00",
                "latitude": 44.87977229330000028539870982058346271514892578125,
                "longitude": 13.8470969326999995274718457949347794055938720703125,
                "sequence": 1
            },
            {
                "stop_id": "i-o984",
                "stop_name": "Vodnjan",
                "arrival_time": "18:16:00",
                "departure_time": "18:17:00",
                "latitude": 44.96670730550000172343061421997845172882080078125,
                "longitude": 13.856073342700000239346991293132305145263671875,
                "sequence": 2
            },
            {
                "stop_id": "i-o979",
                "stop_name": "Kanfanar",
                "arrival_time": "18:33:00",
                "departure_time": "18:34:00",
                "latitude": 45.1171465397000019947881810367107391357421875,
                "longitude": 13.8367383224000004560139132081530988216400146484375,
                "sequence": 3
            },
            {
                "stop_id": "i-o977",
                "stop_name": "Sveti Petar u šumi",
                "arrival_time": "18:48:00",
                "departure_time": "18:49:00",
                "latitude": 45.18508641409999881943804211914539337158203125,
                "longitude": 13.867220617899999268729516188614070415496826171875,
                "sequence": 4
            },
            {
                "stop_id": "i-o975",
                "stop_name": "Pazin",
                "arrival_time": "19:03:00",
                "departure_time": "19:05:00",
                "latitude": 45.23976653380000101378755061887204647064208984375,
                "longitude": 13.946151779699999195827331277541816234588623046875,
                "sequence": 5
            },
            {
                "stop_id": "i-o970",
                "stop_name": "Lupoglav",
                "arrival_time": "19:32:00",
                "departure_time": "19:33:00",
                "latitude": 45.3555389280000014196048141457140445709228515625,
                "longitude": 14.1054264621000005064388460596092045307159423828125,
                "sequence": 6
            },
            {
                "stop_id": "i-o993",
                "stop_name": "Buzet",
                "arrival_time": "19:50:00",
                "departure_time": "20:03:00",
                "latitude": 45.42626604979999882516494835726916790008544921875,
                "longitude": 13.9851510930000006993623173912055790424346923828125,
                "sequence": 7
            }
        ],
        "calendar": [
            {
                "monday": 1,
                "tuesday": 1,
                "wednesday": 1,
                "thursday": 1,
                "friday": 1,
                "saturday": 1,
                "sunday": 1
            }
        ]
    },
    {
        "route_id": "i-tr10",
        "route_number": 1281,
        "route_src": "Šapjane",
        "route_desc": "Rijeka",
        "arrival_time": "09:34:00",
        "departure_time": "09:34:00",
        "bikes_allowed": 0,
        "wheelchair_accessible": 0,
        "route_type": 2,
        "stops": [
            {
                "stop_id": "i-o863",
                "stop_name": "Šapjane",
                "arrival_time": "08:38:00",
                "departure_time": "08:53:00",
                "latitude": 45.4766495694999974830352584831416606903076171875,
                "longitude": 14.2443824579000004604267815011553466320037841796875,
                "sequence": 1
            },
            {
                "stop_id": "i-o869",
                "stop_name": "Opatija-Matulji",
                "arrival_time": "09:18:00",
                "departure_time": "09:19:00",
                "latitude": 45.36459359269999680464025004766881465911865234375,
                "longitude": 14.3210136895000008649958544992841780185699462890625,
                "sequence": 2
            },
            {
                "stop_id": "i-o858",
                "stop_name": "Rijeka",
                "arrival_time": "09:34:00",
                "departure_time": "09:34:00",
                "latitude": 45.33008749689999916654414846561849117279052734375,
                "longitude": 14.4302604034000001576032445882447063922882080078125,
                "sequence": 3
            }
        ],
        "calendar": [
            {
                "monday": 1,
                "tuesday": 1,
                "wednesday": 1,
                "thursday": 1,
                "friday": 1,
                "saturday": 1,
                "sunday": 1
            }
        ]
    },
    {
        "route_id": "i-tr70cq",
        "route_number": 1840,
        "route_src": "Vukovar",
        "route_desc": "Split",
        "arrival_time": "17:35:00",
        "departure_time": "17:36:00",
        "bikes_allowed": 0,
        "wheelchair_accessible": 0,
        "route_type": 2,
        "stops": [
            {
                "stop_id": "i-o437",
                "stop_name": "Vukovar",
                "arrival_time": "16:49:00",
                "departure_time": "16:49:00",
                "latitude": 45.36241968339999885984070715494453907012939453125,
                "longitude": 18.986848549200001201597842737101018428802490234375,
                "sequence": 1
            },
            {
                "stop_id": "i-o415",
                "stop_name": "Vukovar-Borovo naselje",
                "arrival_time": "16:57:00",
                "departure_time": "16:58:00",
                "latitude": 45.37341926250000057052602642215788364410400390625,
                "longitude": 18.95523404389999910790720605291426181793212890625,
                "sequence": 2
            },
            {
                "stop_id": "i-o412",
                "stop_name": "Nuštar Stajalište",
                "arrival_time": "17:13:00",
                "departure_time": "17:13:00",
                "latitude": 45.33636708110000057558863773010671138763427734375,
                "longitude": 18.841331712900000638910569250583648681640625,
                "sequence": 3
            },
            {
                "stop_id": "i-o410",
                "stop_name": "Vinkovci",
                "arrival_time": "17:22:00",
                "departure_time": "17:27:00",
                "latitude": 45.300398403000002645057975314557552337646484375,
                "longitude": 18.802808530600000125332371680997312068939208984375,
                "sequence": 4
            },
            {
                "stop_id": "i-o405",
                "stop_name": "Ivankovo",
                "arrival_time": "17:35:00",
                "departure_time": "17:36:00",
                "latitude": 45.27841224640000206136392080225050449371337890625,
                "longitude": 18.66747958079999847313956706784665584564208984375,
                "sequence": 5
            },
            {
                "stop_id": "i-o407",
                "stop_name": "Stari Mikanovci",
                "arrival_time": "17:44:00",
                "departure_time": "17:45:00",
                "latitude": 45.266579258999996682177879847586154937744140625,
                "longitude": 18.539662080300001179011815111152827739715576171875,
                "sequence": 6
            },
            {
                "stop_id": "i-o408",
                "stop_name": "Strizivojna-Vrpolje",
                "arrival_time": "17:54:00",
                "departure_time": "17:55:00",
                "latitude": 45.2272836842000032220312277786433696746826171875,
                "longitude": 18.413650302600000685515624354593455791473388671875,
                "sequence": 7
            },
            {
                "stop_id": "i-o557",
                "stop_name": "Andrijevci",
                "arrival_time": "18:03:00",
                "departure_time": "18:04:00",
                "latitude": 45.19077487930000103233396657742559909820556640625,
                "longitude": 18.292890468799999581506199319846928119659423828125,
                "sequence": 8
            },
            {
                "stop_id": "i-o559",
                "stop_name": "Garčin",
                "arrival_time": "18:10:00",
                "departure_time": "18:11:00",
                "latitude": 45.17348443120000212047671084292232990264892578125,
                "longitude": 18.18597336970000100109245977364480495452880859375,
                "sequence": 9
            },
            {
                "stop_id": "i-o562",
                "stop_name": "Slavonski Brod",
                "arrival_time": "18:22:00",
                "departure_time": "18:24:00",
                "latitude": 45.1636245437999974683407344855368137359619140625,
                "longitude": 18.011181271200001674515078775584697723388671875,
                "sequence": 10
            },
            {
                "stop_id": "i-o553",
                "stop_name": "Oriovac",
                "arrival_time": "18:44:00",
                "departure_time": "18:45:00",
                "latitude": 45.16126294920000106003499240614473819732666015625,
                "longitude": 17.753673911399999951754580251872539520263671875,
                "sequence": 11
            },
            {
                "stop_id": "i-o555",
                "stop_name": "Nova Kapela-Batrina",
                "arrival_time": "18:53:00",
                "departure_time": "18:54:00",
                "latitude": 45.189826492299999927126918919384479522705078125,
                "longitude": 17.650262068400000003975947038270533084869384765625,
                "sequence": 12
            },
            {
                "stop_id": "i-o543",
                "stop_name": "Nova Gradiška",
                "arrival_time": "19:14:00",
                "departure_time": "19:15:00",
                "latitude": 45.25335844220000325321962009184062480926513671875,
                "longitude": 17.37927150659999853132831049151718616485595703125,
                "sequence": 13
            },
            {
                "stop_id": "i-o545",
                "stop_name": "Okučani",
                "arrival_time": "19:27:00",
                "departure_time": "19:28:00",
                "latitude": 45.252361567500003047825885005295276641845703125,
                "longitude": 17.2062904277999990654279827140271663665771484375,
                "sequence": 14
            },
            {
                "stop_id": "i-o539",
                "stop_name": "Novska",
                "arrival_time": "19:41:00",
                "departure_time": "19:49:00",
                "latitude": 45.32688757679999724814479122869670391082763671875,
                "longitude": 16.976728271199998943075115676037967205047607421875,
                "sequence": 15
            },
            {
                "stop_id": "i-o493",
                "stop_name": "Sunja",
                "arrival_time": "20:36:00",
                "departure_time": "20:37:00",
                "latitude": 45.35550680600000106323932413943111896514892578125,
                "longitude": 16.5504937205000004496469045989215373992919921875,
                "sequence": 16
            },
            {
                "stop_id": "i-o564",
                "stop_name": "Sisak",
                "arrival_time": "21:05:00",
                "departure_time": "21:10:00",
                "latitude": 45.49211775330000051553724915720522403717041015625,
                "longitude": 16.373444267400000029510920285247266292572021484375,
                "sequence": 17
            },
            {
                "stop_id": "i-o571",
                "stop_name": "Velika Gorica",
                "arrival_time": "21:32:00",
                "departure_time": "21:46:00",
                "latitude": 45.708596500200002310521085746586322784423828125,
                "longitude": 16.046938730600000866388654685579240322113037109375,
                "sequence": 18
            },
            {
                "stop_id": "i-o521",
                "stop_name": "Zagreb Glavni kolodvor",
                "arrival_time": "22:00:00",
                "departure_time": "22:30:00",
                "latitude": 45.8044511798999991469827364198863506317138671875,
                "longitude": 15.9788116194000000547248419024981558322906494140625,
                "sequence": 19
            },
            {
                "stop_id": "i-o791",
                "stop_name": "Karlovac",
                "arrival_time": "23:16:00",
                "departure_time": "23:17:00",
                "latitude": 45.50012052400000328589158016256988048553466796875,
                "longitude": 15.5449150840999994471758327563293278217315673828125,
                "sequence": 20
            },
            {
                "stop_id": "i-o802",
                "stop_name": "Oštarije",
                "arrival_time": "24:16:00",
                "departure_time": "24:22:00",
                "latitude": 45.2343899549999974851743900217115879058837890625,
                "longitude": 15.2962805733000006824795491411350667476654052734375,
                "sequence": 21
            },
            {
                "stop_id": "i-o891",
                "stop_name": "Gospić",
                "arrival_time": "26:29:00",
                "departure_time": "26:35:00",
                "latitude": 44.536170187099997974655707366764545440673828125,
                "longitude": 15.3935933752000000396265022573061287403106689453125,
                "sequence": 22
            },
            {
                "stop_id": "i-o900",
                "stop_name": "Gračac",
                "arrival_time": "27:15:00",
                "departure_time": "27:17:00",
                "latitude": 44.30036064640000148528997669927775859832763671875,
                "longitude": 15.82214818279999946071256999857723712921142578125,
                "sequence": 23
            },
            {
                "stop_id": "i-o910",
                "stop_name": "Knin",
                "arrival_time": "28:22:00",
                "departure_time": "28:28:00",
                "latitude": 44.03664695820000218873246922157704830169677734375,
                "longitude": 16.198356645400000530798934050835669040679931640625,
                "sequence": 24
            },
            {
                "stop_id": "i-o936",
                "stop_name": "Drniš",
                "arrival_time": "28:52:00",
                "departure_time": "28:54:00",
                "latitude": 43.86372574720000017123311408795416355133056640625,
                "longitude": 16.181851980499999399398802779614925384521484375,
                "sequence": 25
            },
            {
                "stop_id": "i-o943",
                "stop_name": "Perković",
                "arrival_time": "29:28:00",
                "departure_time": "29:39:00",
                "latitude": 43.67558160979999826167841092683374881744384765625,
                "longitude": 16.1177946074000004728077328763902187347412109375,
                "sequence": 26
            },
            {
                "stop_id": "i-o951",
                "stop_name": "Kaštel Stari",
                "arrival_time": "30:25:00",
                "departure_time": "30:26:00",
                "latitude": 43.567388012099996785764233209192752838134765625,
                "longitude": 16.344813829399999605129778501577675342559814453125,
                "sequence": 27
            },
            {
                "stop_id": "i-o960",
                "stop_name": "Split Predgrađe",
                "arrival_time": "30:50:00",
                "departure_time": "30:51:00",
                "latitude": 43.5221211066999984495851094834506511688232421875,
                "longitude": 16.455261729099998291303563746623694896697998046875,
                "sequence": 28
            },
            {
                "stop_id": "i-o959",
                "stop_name": "Split",
                "arrival_time": "30:56:00",
                "departure_time": "30:56:00",
                "latitude": 43.50473010420000008480201358906924724578857421875,
                "longitude": 16.442957801599998646224776166491210460662841796875,
                "sequence": 29
            }
        ],
        "calendar": [
            {
                "monday": 1,
                "tuesday": 1,
                "wednesday": 1,
                "thursday": 1,
                "friday": 1,
                "saturday": 1,
                "sunday": 1
            }
        ]
    },
    {
        "route_id": "i-tr71cp",
        "route_number": 1841,
        "route_src": "Split",
        "route_desc": "Vukovar",
        "arrival_time": "34:06:00",
        "departure_time": "34:07:00",
        "bikes_allowed": 0,
        "wheelchair_accessible": 0,
        "route_type": 2,
        "stops": [
            {
                "stop_id": "i-o959",
                "stop_name": "Split",
                "arrival_time": "20:59:00",
                "departure_time": "20:59:00",
                "latitude": 43.50473010420000008480201358906924724578857421875,
                "longitude": 16.442957801599998646224776166491210460662841796875,
                "sequence": 1
            },
            {
                "stop_id": "i-o960",
                "stop_name": "Split Predgrađe",
                "arrival_time": "21:04:00",
                "departure_time": "21:05:00",
                "latitude": 43.5221211066999984495851094834506511688232421875,
                "longitude": 16.455261729099998291303563746623694896697998046875,
                "sequence": 2
            },
            {
                "stop_id": "i-o951",
                "stop_name": "Kaštel Stari",
                "arrival_time": "21:42:00",
                "departure_time": "21:47:00",
                "latitude": 43.567388012099996785764233209192752838134765625,
                "longitude": 16.344813829399999605129778501577675342559814453125,
                "sequence": 3
            },
            {
                "stop_id": "i-o943",
                "stop_name": "Perković",
                "arrival_time": "22:38:00",
                "departure_time": "22:39:00",
                "latitude": 43.67558160979999826167841092683374881744384765625,
                "longitude": 16.1177946074000004728077328763902187347412109375,
                "sequence": 4
            },
            {
                "stop_id": "i-o936",
                "stop_name": "Drniš",
                "arrival_time": "23:16:00",
                "departure_time": "23:17:00",
                "latitude": 43.86372574720000017123311408795416355133056640625,
                "longitude": 16.181851980499999399398802779614925384521484375,
                "sequence": 5
            },
            {
                "stop_id": "i-o910",
                "stop_name": "Knin",
                "arrival_time": "23:40:00",
                "departure_time": "23:41:00",
                "latitude": 44.03664695820000218873246922157704830169677734375,
                "longitude": 16.198356645400000530798934050835669040679931640625,
                "sequence": 6
            },
            {
                "stop_id": "i-o900",
                "stop_name": "Gračac",
                "arrival_time": "24:54:00",
                "departure_time": "24:55:00",
                "latitude": 44.30036064640000148528997669927775859832763671875,
                "longitude": 15.82214818279999946071256999857723712921142578125,
                "sequence": 7
            },
            {
                "stop_id": "i-o891",
                "stop_name": "Gospić",
                "arrival_time": "25:32:00",
                "departure_time": "25:33:00",
                "latitude": 44.536170187099997974655707366764545440673828125,
                "longitude": 15.3935933752000000396265022573061287403106689453125,
                "sequence": 8
            },
            {
                "stop_id": "i-o802",
                "stop_name": "Oštarije",
                "arrival_time": "27:58:00",
                "departure_time": "28:03:00",
                "latitude": 45.2343899549999974851743900217115879058837890625,
                "longitude": 15.2962805733000006824795491411350667476654052734375,
                "sequence": 9
            },
            {
                "stop_id": "i-o791",
                "stop_name": "Karlovac",
                "arrival_time": "28:52:00",
                "departure_time": "28:53:00",
                "latitude": 45.50012052400000328589158016256988048553466796875,
                "longitude": 15.5449150840999994471758327563293278217315673828125,
                "sequence": 10
            },
            {
                "stop_id": "i-o521",
                "stop_name": "Zagreb Glavni kolodvor",
                "arrival_time": "29:40:00",
                "departure_time": "29:59:00",
                "latitude": 45.8044511798999991469827364198863506317138671875,
                "longitude": 15.9788116194000000547248419024981558322906494140625,
                "sequence": 11
            },
            {
                "stop_id": "i-o571",
                "stop_name": "Velika Gorica",
                "arrival_time": "30:18:00",
                "departure_time": "30:19:00",
                "latitude": 45.708596500200002310521085746586322784423828125,
                "longitude": 16.046938730600000866388654685579240322113037109375,
                "sequence": 12
            },
            {
                "stop_id": "i-o564",
                "stop_name": "Sisak",
                "arrival_time": "30:58:00",
                "departure_time": "31:09:00",
                "latitude": 45.49211775330000051553724915720522403717041015625,
                "longitude": 16.373444267400000029510920285247266292572021484375,
                "sequence": 13
            },
            {
                "stop_id": "i-o493",
                "stop_name": "Sunja",
                "arrival_time": "31:35:00",
                "departure_time": "31:36:00",
                "latitude": 45.35550680600000106323932413943111896514892578125,
                "longitude": 16.5504937205000004496469045989215373992919921875,
                "sequence": 14
            },
            {
                "stop_id": "i-o539",
                "stop_name": "Novska",
                "arrival_time": "32:22:00",
                "departure_time": "32:30:00",
                "latitude": 45.32688757679999724814479122869670391082763671875,
                "longitude": 16.976728271199998943075115676037967205047607421875,
                "sequence": 15
            },
            {
                "stop_id": "i-o545",
                "stop_name": "Okučani",
                "arrival_time": "32:42:00",
                "departure_time": "32:43:00",
                "latitude": 45.252361567500003047825885005295276641845703125,
                "longitude": 17.2062904277999990654279827140271663665771484375,
                "sequence": 16
            },
            {
                "stop_id": "i-o543",
                "stop_name": "Nova Gradiška",
                "arrival_time": "32:55:00",
                "departure_time": "32:56:00",
                "latitude": 45.25335844220000325321962009184062480926513671875,
                "longitude": 17.37927150659999853132831049151718616485595703125,
                "sequence": 17
            },
            {
                "stop_id": "i-o555",
                "stop_name": "Nova Kapela-Batrina",
                "arrival_time": "33:14:00",
                "departure_time": "33:15:00",
                "latitude": 45.189826492299999927126918919384479522705078125,
                "longitude": 17.650262068400000003975947038270533084869384765625,
                "sequence": 18
            },
            {
                "stop_id": "i-o562",
                "stop_name": "Slavonski Brod",
                "arrival_time": "33:42:00",
                "departure_time": "33:44:00",
                "latitude": 45.1636245437999974683407344855368137359619140625,
                "longitude": 18.011181271200001674515078775584697723388671875,
                "sequence": 19
            },
            {
                "stop_id": "i-o408",
                "stop_name": "Strizivojna-Vrpolje",
                "arrival_time": "34:06:00",
                "departure_time": "34:07:00",
                "latitude": 45.2272836842000032220312277786433696746826171875,
                "longitude": 18.413650302600000685515624354593455791473388671875,
                "sequence": 20
            },
            {
                "stop_id": "i-o410",
                "stop_name": "Vinkovci",
                "arrival_time": "34:28:00",
                "departure_time": "34:33:00",
                "latitude": 45.300398403000002645057975314557552337646484375,
                "longitude": 18.802808530600000125332371680997312068939208984375,
                "sequence": 21
            },
            {
                "stop_id": "i-o412",
                "stop_name": "Nuštar Stajalište",
                "arrival_time": "34:42:00",
                "departure_time": "34:42:00",
                "latitude": 45.33636708110000057558863773010671138763427734375,
                "longitude": 18.841331712900000638910569250583648681640625,
                "sequence": 22
            },
            {
                "stop_id": "i-o415",
                "stop_name": "Vukovar-Borovo naselje",
                "arrival_time": "34:57:00",
                "departure_time": "34:58:00",
                "latitude": 45.37341926250000057052602642215788364410400390625,
                "longitude": 18.95523404389999910790720605291426181793212890625,
                "sequence": 23
            },
            {
                "stop_id": "i-o437",
                "stop_name": "Vukovar",
                "arrival_time": "35:06:00",
                "departure_time": "35:06:00",
                "latitude": 45.36241968339999885984070715494453907012939453125,
                "longitude": 18.986848549200001201597842737101018428802490234375,
                "sequence": 24
            }
        ],
        "calendar": [
            {
                "monday": 1,
                "tuesday": 1,
                "wednesday": 1,
                "thursday": 1,
                "friday": 1,
                "saturday": 1,
                "sunday": 1
            }
        ]
    },
    {
        "route_id": "i-tr109dq",
        "route_number": 1880,
        "route_src": "Osijek",
        "route_desc": "Split",
        "arrival_time": "20:10:00",
        "departure_time": "20:10:00",
        "bikes_allowed": 0,
        "wheelchair_accessible": 0,
        "route_type": 2,
        "stops": [
            {
                "stop_id": "i-o483",
                "stop_name": "Osijek",
                "arrival_time": "19:45:00",
                "departure_time": "19:45:00",
                "latitude": 45.5527370154999999840583768673241138458251953125,
                "longitude": 18.683408254700001549508669995702803134918212890625,
                "sequence": 1
            },
            {
                "stop_id": "i-o471",
                "stop_name": "Bizovac",
                "arrival_time": "20:10:00",
                "departure_time": "20:10:00",
                "latitude": 45.5871337927000013223732821643352508544921875,
                "longitude": 18.453009380899999314351589418947696685791015625,
                "sequence": 2
            },
            {
                "stop_id": "i-o677",
                "stop_name": "Našice",
                "arrival_time": "20:46:00",
                "departure_time": "20:57:00",
                "latitude": 45.4964953679999979385684127919375896453857421875,
                "longitude": 18.124366400100001328610233031213283538818359375,
                "sequence": 3
            },
            {
                "stop_id": "i-o679",
                "stop_name": "Đurđenovac",
                "arrival_time": "21:13:00",
                "departure_time": "21:13:00",
                "latitude": 45.5374044048000001794207491911947727203369140625,
                "longitude": 18.0380619772000017064783605746924877166748046875,
                "sequence": 4
            },
            {
                "stop_id": "i-o682",
                "stop_name": "Čačinci",
                "arrival_time": "21:33:00",
                "departure_time": "21:33:00",
                "latitude": 45.59862178910000096720978035591542720794677734375,
                "longitude": 17.86896726250000000391082721762359142303466796875,
                "sequence": 5
            },
            {
                "stop_id": "i-o685",
                "stop_name": "Slatina",
                "arrival_time": "21:55:00",
                "departure_time": "21:56:00",
                "latitude": 45.70557191719999678980457247234880924224853515625,
                "longitude": 17.706264645800001034103843267075717449188232421875,
                "sequence": 6
            },
            {
                "stop_id": "i-o577",
                "stop_name": "Virovitica",
                "arrival_time": "22:30:00",
                "departure_time": "22:32:00",
                "latitude": 45.8251167677999973193436744622886180877685546875,
                "longitude": 17.398593959500001204787622555159032344818115234375,
                "sequence": 7
            },
            {
                "stop_id": "i-o581",
                "stop_name": "Pitomača",
                "arrival_time": "22:50:00",
                "departure_time": "22:50:00",
                "latitude": 45.94256768630000209441277547739446163177490234375,
                "longitude": 17.229547902200000208949859370477497577667236328125,
                "sequence": 8
            },
            {
                "stop_id": "i-o612",
                "stop_name": "Bjelovar",
                "arrival_time": "23:38:00",
                "departure_time": "23:39:00",
                "latitude": 45.8940714232000033234726288355886936187744140625,
                "longitude": 16.844665872299998454764136113226413726806640625,
                "sequence": 9
            },
            {
                "stop_id": "i-o597",
                "stop_name": "Vrbovec",
                "arrival_time": "24:13:00",
                "departure_time": "24:14:00",
                "latitude": 45.8736124603999968485368299297988414764404296875,
                "longitude": 16.410386751699999052789280540309846401214599609375,
                "sequence": 10
            },
            {
                "stop_id": "i-o521",
                "stop_name": "Zagreb Glavni kolodvor",
                "arrival_time": "24:54:00",
                "departure_time": "25:09:00",
                "latitude": 45.8044511798999991469827364198863506317138671875,
                "longitude": 15.9788116194000000547248419024981558322906494140625,
                "sequence": 11
            },
            {
                "stop_id": "i-o791",
                "stop_name": "Karlovac",
                "arrival_time": "25:55:00",
                "departure_time": "25:56:00",
                "latitude": 45.50012052400000328589158016256988048553466796875,
                "longitude": 15.5449150840999994471758327563293278217315673828125,
                "sequence": 12
            },
            {
                "stop_id": "i-o793",
                "stop_name": "Duga Resa",
                "arrival_time": "26:06:00",
                "departure_time": "26:07:00",
                "latitude": 45.44895648810000210460202652029693126678466796875,
                "longitude": 15.498585376899999488387038582004606723785400390625,
                "sequence": 13
            },
            {
                "stop_id": "i-o891",
                "stop_name": "Gospić",
                "arrival_time": "28:58:00",
                "departure_time": "28:59:00",
                "latitude": 44.536170187099997974655707366764545440673828125,
                "longitude": 15.3935933752000000396265022573061287403106689453125,
                "sequence": 14
            },
            {
                "stop_id": "i-o900",
                "stop_name": "Gračac",
                "arrival_time": "29:39:00",
                "departure_time": "29:40:00",
                "latitude": 44.30036064640000148528997669927775859832763671875,
                "longitude": 15.82214818279999946071256999857723712921142578125,
                "sequence": 15
            },
            {
                "stop_id": "i-o910",
                "stop_name": "Knin",
                "arrival_time": "30:45:00",
                "departure_time": "30:46:00",
                "latitude": 44.03664695820000218873246922157704830169677734375,
                "longitude": 16.198356645400000530798934050835669040679931640625,
                "sequence": 16
            },
            {
                "stop_id": "i-o936",
                "stop_name": "Drniš",
                "arrival_time": "31:10:00",
                "departure_time": "31:11:00",
                "latitude": 43.86372574720000017123311408795416355133056640625,
                "longitude": 16.181851980499999399398802779614925384521484375,
                "sequence": 17
            },
            {
                "stop_id": "i-o943",
                "stop_name": "Perković",
                "arrival_time": "31:45:00",
                "departure_time": "31:46:00",
                "latitude": 43.67558160979999826167841092683374881744384765625,
                "longitude": 16.1177946074000004728077328763902187347412109375,
                "sequence": 18
            },
            {
                "stop_id": "i-o951",
                "stop_name": "Kaštel Stari",
                "arrival_time": "32:32:00",
                "departure_time": "32:43:00",
                "latitude": 43.567388012099996785764233209192752838134765625,
                "longitude": 16.344813829399999605129778501577675342559814453125,
                "sequence": 19
            },
            {
                "stop_id": "i-o960",
                "stop_name": "Split Predgrađe",
                "arrival_time": "33:07:00",
                "departure_time": "33:08:00",
                "latitude": 43.5221211066999984495851094834506511688232421875,
                "longitude": 16.455261729099998291303563746623694896697998046875,
                "sequence": 20
            },
            {
                "stop_id": "i-o959",
                "stop_name": "Split",
                "arrival_time": "33:13:00",
                "departure_time": "33:13:00",
                "latitude": 43.50473010420000008480201358906924724578857421875,
                "longitude": 16.442957801599998646224776166491210460662841796875,
                "sequence": 21
            }
        ],
        "calendar": [
            {
                "monday": 1,
                "tuesday": 1,
                "wednesday": 1,
                "thursday": 1,
                "friday": 1,
                "saturday": 1,
                "sunday": 0
            },
            {
                "monday": 0,
                "tuesday": 0,
                "wednesday": 0,
                "thursday": 0,
                "friday": 0,
                "saturday": 0,
                "sunday": 1
            }
        ]
    },
    {
        "route_id": "i-tr110ez",
        "route_number": 1881,
        "route_src": "Split",
        "route_desc": "Osijek",
        "arrival_time": "35:37:00",
        "departure_time": "35:38:00",
        "bikes_allowed": 0,
        "wheelchair_accessible": 0,
        "route_type": 2,
        "stops": [
            {
                "stop_id": "i-o959",
                "stop_name": "Split",
                "arrival_time": "22:18:00",
                "departure_time": "22:18:00",
                "latitude": 43.50473010420000008480201358906924724578857421875,
                "longitude": 16.442957801599998646224776166491210460662841796875,
                "sequence": 1
            },
            {
                "stop_id": "i-o960",
                "stop_name": "Split Predgrađe",
                "arrival_time": "22:23:00",
                "departure_time": "22:24:00",
                "latitude": 43.5221211066999984495851094834506511688232421875,
                "longitude": 16.455261729099998291303563746623694896697998046875,
                "sequence": 2
            },
            {
                "stop_id": "i-o951",
                "stop_name": "Kaštel Stari",
                "arrival_time": "22:46:00",
                "departure_time": "22:47:00",
                "latitude": 43.567388012099996785764233209192752838134765625,
                "longitude": 16.344813829399999605129778501577675342559814453125,
                "sequence": 3
            },
            {
                "stop_id": "i-o943",
                "stop_name": "Perković",
                "arrival_time": "23:38:00",
                "departure_time": "23:39:00",
                "latitude": 43.67558160979999826167841092683374881744384765625,
                "longitude": 16.1177946074000004728077328763902187347412109375,
                "sequence": 4
            },
            {
                "stop_id": "i-o936",
                "stop_name": "Drniš",
                "arrival_time": "24:16:00",
                "departure_time": "24:17:00",
                "latitude": 43.86372574720000017123311408795416355133056640625,
                "longitude": 16.181851980499999399398802779614925384521484375,
                "sequence": 5
            },
            {
                "stop_id": "i-o910",
                "stop_name": "Knin",
                "arrival_time": "24:40:00",
                "departure_time": "24:41:00",
                "latitude": 44.03664695820000218873246922157704830169677734375,
                "longitude": 16.198356645400000530798934050835669040679931640625,
                "sequence": 6
            },
            {
                "stop_id": "i-o900",
                "stop_name": "Gračac",
                "arrival_time": "25:54:00",
                "departure_time": "25:55:00",
                "latitude": 44.30036064640000148528997669927775859832763671875,
                "longitude": 15.82214818279999946071256999857723712921142578125,
                "sequence": 7
            },
            {
                "stop_id": "i-o891",
                "stop_name": "Gospić",
                "arrival_time": "26:32:00",
                "departure_time": "26:33:00",
                "latitude": 44.536170187099997974655707366764545440673828125,
                "longitude": 15.3935933752000000396265022573061287403106689453125,
                "sequence": 8
            },
            {
                "stop_id": "i-o793",
                "stop_name": "Duga Resa",
                "arrival_time": "29:19:00",
                "departure_time": "29:20:00",
                "latitude": 45.44895648810000210460202652029693126678466796875,
                "longitude": 15.498585376899999488387038582004606723785400390625,
                "sequence": 9
            },
            {
                "stop_id": "i-o791",
                "stop_name": "Karlovac",
                "arrival_time": "29:30:00",
                "departure_time": "29:34:00",
                "latitude": 45.50012052400000328589158016256988048553466796875,
                "longitude": 15.5449150840999994471758327563293278217315673828125,
                "sequence": 10
            },
            {
                "stop_id": "i-o521",
                "stop_name": "Zagreb Glavni kolodvor",
                "arrival_time": "30:22:00",
                "departure_time": "30:46:00",
                "latitude": 45.8044511798999991469827364198863506317138671875,
                "longitude": 15.9788116194000000547248419024981558322906494140625,
                "sequence": 11
            },
            {
                "stop_id": "i-o597",
                "stop_name": "Vrbovec",
                "arrival_time": "31:25:00",
                "departure_time": "31:26:00",
                "latitude": 45.8736124603999968485368299297988414764404296875,
                "longitude": 16.410386751699999052789280540309846401214599609375,
                "sequence": 12
            },
            {
                "stop_id": "i-o612",
                "stop_name": "Bjelovar",
                "arrival_time": "32:11:00",
                "departure_time": "32:12:00",
                "latitude": 45.8940714232000033234726288355886936187744140625,
                "longitude": 16.844665872299998454764136113226413726806640625,
                "sequence": 13
            },
            {
                "stop_id": "i-o582",
                "stop_name": "Kloštar",
                "arrival_time": "32:52:00",
                "departure_time": "32:56:00",
                "latitude": 45.98144457779999783042512717656791210174560546875,
                "longitude": 17.139272198099998689713174826465547084808349609375,
                "sequence": 14
            },
            {
                "stop_id": "i-o581",
                "stop_name": "Pitomača",
                "arrival_time": "33:06:00",
                "departure_time": "33:06:00",
                "latitude": 45.94256768630000209441277547739446163177490234375,
                "longitude": 17.229547902200000208949859370477497577667236328125,
                "sequence": 15
            },
            {
                "stop_id": "i-o577",
                "stop_name": "Virovitica",
                "arrival_time": "33:25:00",
                "departure_time": "33:27:00",
                "latitude": 45.8251167677999973193436744622886180877685546875,
                "longitude": 17.398593959500001204787622555159032344818115234375,
                "sequence": 16
            },
            {
                "stop_id": "i-o685",
                "stop_name": "Slatina",
                "arrival_time": "34:00:00",
                "departure_time": "34:01:00",
                "latitude": 45.70557191719999678980457247234880924224853515625,
                "longitude": 17.706264645800001034103843267075717449188232421875,
                "sequence": 17
            },
            {
                "stop_id": "i-o682",
                "stop_name": "Čačinci",
                "arrival_time": "34:22:00",
                "departure_time": "34:23:00",
                "latitude": 45.59862178910000096720978035591542720794677734375,
                "longitude": 17.86896726250000000391082721762359142303466796875,
                "sequence": 18
            },
            {
                "stop_id": "i-o679",
                "stop_name": "Đurđenovac",
                "arrival_time": "34:44:00",
                "departure_time": "34:44:00",
                "latitude": 45.5374044048000001794207491911947727203369140625,
                "longitude": 18.0380619772000017064783605746924877166748046875,
                "sequence": 19
            },
            {
                "stop_id": "i-o677",
                "stop_name": "Našice",
                "arrival_time": "35:00:00",
                "departure_time": "35:01:00",
                "latitude": 45.4964953679999979385684127919375896453857421875,
                "longitude": 18.124366400100001328610233031213283538818359375,
                "sequence": 20
            },
            {
                "stop_id": "i-o471",
                "stop_name": "Bizovac",
                "arrival_time": "35:37:00",
                "departure_time": "35:38:00",
                "latitude": 45.5871337927000013223732821643352508544921875,
                "longitude": 18.453009380899999314351589418947696685791015625,
                "sequence": 21
            },
            {
                "stop_id": "i-o483",
                "stop_name": "Osijek",
                "arrival_time": "36:04:00",
                "departure_time": "36:04:00",
                "latitude": 45.5527370154999999840583768673241138458251953125,
                "longitude": 18.683408254700001549508669995702803134918212890625,
                "sequence": 22
            }
        ],
        "calendar": [
            {
                "monday": 1,
                "tuesday": 1,
                "wednesday": 1,
                "thursday": 1,
                "friday": 1,
                "saturday": 1,
                "sunday": 1
            }
        ]
    },
    {
        "route_id": "i-tr1076aw",
        "route_number": 1983,
        "route_src": "Zagreb Glavni kolodvor",
        "route_desc": "Osijek Donji grad",
        "arrival_time": "13:24:00",
        "departure_time": "13:24:00",
        "bikes_allowed": 0,
        "wheelchair_accessible": 0,
        "route_type": 2,
        "stops": [
            {
                "stop_id": "i-o612",
                "stop_name": "Bjelovar",
                "arrival_time": "08:52:00",
                "departure_time": "09:00:00",
                "latitude": 45.8940714232000033234726288355886936187744140625,
                "longitude": 16.844665872299998454764136113226413726806640625,
                "sequence": 1
            },
            {
                "stop_id": "i-o618",
                "stop_name": "Grginac",
                "arrival_time": "09:05:00",
                "departure_time": "09:05:00",
                "latitude": 45.9093679925999964552829624153673648834228515625,
                "longitude": 16.893110007299998898133708280511200428009033203125,
                "sequence": 2
            },
            {
                "stop_id": "i-o619",
                "stop_name": "Grginac Novi",
                "arrival_time": "09:07:00",
                "departure_time": "09:07:00",
                "latitude": 45.9138711943000004112036549486219882965087890625,
                "longitude": 16.908371414499999474401192856021225452423095703125,
                "sequence": 3
            },
            {
                "stop_id": "i-o620",
                "stop_name": "Veliko Trojstvo",
                "arrival_time": "09:10:00",
                "departure_time": "09:10:00",
                "latitude": 45.93215374679999740692437626421451568603515625,
                "longitude": 16.924990162899998580314786522649228572845458984375,
                "sequence": 4
            },
            {
                "stop_id": "i-o621",
                "stop_name": "Mišulinovac",
                "arrival_time": "09:14:00",
                "departure_time": "09:14:00",
                "latitude": 45.9347418740999984265727107413113117218017578125,
                "longitude": 16.9449073884999990013966453261673450469970703125,
                "sequence": 5
            },
            {
                "stop_id": "i-o622",
                "stop_name": "Paulovac",
                "arrival_time": "09:19:00",
                "departure_time": "09:19:00",
                "latitude": 45.93844228270000229485958698205649852752685546875,
                "longitude": 16.97437660519999980124339344911277294158935546875,
                "sequence": 6
            },
            {
                "stop_id": "i-o624",
                "stop_name": "Sirova Katalena",
                "arrival_time": "09:31:00",
                "departure_time": "09:31:00",
                "latitude": 45.9592075842000014063160051591694355010986328125,
                "longitude": 17.068270051300000744731732993386685848236083984375,
                "sequence": 7
            },
            {
                "stop_id": "i-o582",
                "stop_name": "Kloštar",
                "arrival_time": "09:41:00",
                "departure_time": "09:42:00",
                "latitude": 45.98144457779999783042512717656791210174560546875,
                "longitude": 17.139272198099998689713174826465547084808349609375,
                "sequence": 8
            },
            {
                "stop_id": "i-o483",
                "stop_name": "Osijek",
                "arrival_time": "13:14:00",
                "departure_time": "13:16:00",
                "latitude": 45.5527370154999999840583768673241138458251953125,
                "longitude": 18.683408254700001549508669995702803134918212890625,
                "sequence": 1
            },
            {
                "stop_id": "i-o450",
                "stop_name": "Osijek OLT",
                "arrival_time": "13:21:00",
                "departure_time": "13:21:00",
                "latitude": 45.55411153029999837826835573650896549224853515625,
                "longitude": 18.70550939980000038076468626968562602996826171875,
                "sequence": 2
            },
            {
                "stop_id": "i-o448",
                "stop_name": "Osijek Donji grad",
                "arrival_time": "13:24:00",
                "departure_time": "13:24:00",
                "latitude": 45.55223150550000354996882379055023193359375,
                "longitude": 18.721267650800001547395368106663227081298828125,
                "sequence": 3
            }
        ],
        "calendar": [
            {
                "monday": 0,
                "tuesday": 0,
                "wednesday": 0,
                "thursday": 0,
                "friday": 0,
                "saturday": 1,
                "sunday": 1
            },
            {
                "monday": 1,
                "tuesday": 1,
                "wednesday": 1,
                "thursday": 1,
                "friday": 1,
                "saturday": 0,
                "sunday": 0
            },
            {
                "monday": 0,
                "tuesday": 0,
                "wednesday": 0,
                "thursday": 0,
                "friday": 0,
                "saturday": 1,
                "sunday": 0
            }
        ]
    },
    {
        "route_id": "i-tr25",
        "route_number": 1984,
        "route_src": "Osijek",
        "route_desc": "Zagreb Glavni kolodvor",
        "arrival_time": "12:04:00",
        "departure_time": "12:05:00",
        "bikes_allowed": 0,
        "wheelchair_accessible": 0,
        "route_type": 2,
        "stops": [
            {
                "stop_id": "i-o577",
                "stop_name": "Virovitica",
                "arrival_time": "09:28:00",
                "departure_time": "09:28:00",
                "latitude": 45.8251167677999973193436744622886180877685546875,
                "longitude": 17.398593959500001204787622555159032344818115234375,
                "sequence": 1
            },
            {
                "stop_id": "i-o578",
                "stop_name": "Virovitica grad",
                "arrival_time": "09:30:00",
                "departure_time": "09:30:00",
                "latitude": 45.826843351500002654574927873909473419189453125,
                "longitude": 17.3860479402000009940820746123790740966796875,
                "sequence": 2
            },
            {
                "stop_id": "i-o579",
                "stop_name": "Špišić Bukovica",
                "arrival_time": "09:37:00",
                "departure_time": "09:37:00",
                "latitude": 45.84584561930000035090415622107684612274169921875,
                "longitude": 17.298768283200001150134994531981647014617919921875,
                "sequence": 3
            },
            {
                "stop_id": "i-o581",
                "stop_name": "Pitomača",
                "arrival_time": "09:47:00",
                "departure_time": "09:57:00",
                "latitude": 45.94256768630000209441277547739446163177490234375,
                "longitude": 17.229547902200000208949859370477497577667236328125,
                "sequence": 4
            },
            {
                "stop_id": "i-o582",
                "stop_name": "Kloštar",
                "arrival_time": "10:06:00",
                "departure_time": "10:07:00",
                "latitude": 45.98144457779999783042512717656791210174560546875,
                "longitude": 17.139272198099998689713174826465547084808349609375,
                "sequence": 5
            },
            {
                "stop_id": "i-o624",
                "stop_name": "Sirova Katalena",
                "arrival_time": "10:16:00",
                "departure_time": "10:16:00",
                "latitude": 45.9592075842000014063160051591694355010986328125,
                "longitude": 17.068270051300000744731732993386685848236083984375,
                "sequence": 6
            },
            {
                "stop_id": "i-o622",
                "stop_name": "Paulovac",
                "arrival_time": "10:27:00",
                "departure_time": "10:27:00",
                "latitude": 45.93844228270000229485958698205649852752685546875,
                "longitude": 16.97437660519999980124339344911277294158935546875,
                "sequence": 7
            },
            {
                "stop_id": "i-o621",
                "stop_name": "Mišulinovac",
                "arrival_time": "10:32:00",
                "departure_time": "10:32:00",
                "latitude": 45.9347418740999984265727107413113117218017578125,
                "longitude": 16.9449073884999990013966453261673450469970703125,
                "sequence": 8
            },
            {
                "stop_id": "i-o620",
                "stop_name": "Veliko Trojstvo",
                "arrival_time": "10:36:00",
                "departure_time": "10:36:00",
                "latitude": 45.93215374679999740692437626421451568603515625,
                "longitude": 16.924990162899998580314786522649228572845458984375,
                "sequence": 9
            },
            {
                "stop_id": "i-o619",
                "stop_name": "Grginac Novi",
                "arrival_time": "10:39:00",
                "departure_time": "10:39:00",
                "latitude": 45.9138711943000004112036549486219882965087890625,
                "longitude": 16.908371414499999474401192856021225452423095703125,
                "sequence": 10
            },
            {
                "stop_id": "i-o618",
                "stop_name": "Grginac",
                "arrival_time": "10:41:00",
                "departure_time": "10:41:00",
                "latitude": 45.9093679925999964552829624153673648834228515625,
                "longitude": 16.893110007299998898133708280511200428009033203125,
                "sequence": 11
            },
            {
                "stop_id": "i-o612",
                "stop_name": "Bjelovar",
                "arrival_time": "10:47:00",
                "departure_time": "10:48:00",
                "latitude": 45.8940714232000033234726288355886936187744140625,
                "longitude": 16.844665872299998454764136113226413726806640625,
                "sequence": 12
            },
            {
                "stop_id": "i-o611",
                "stop_name": "Klokočevac",
                "arrival_time": "10:55:00",
                "departure_time": "10:55:00",
                "latitude": 45.91011242260000102533012977801263332366943359375,
                "longitude": 16.775196602600001227756365551613271236419677734375,
                "sequence": 13
            },
            {
                "stop_id": "i-o613",
                "stop_name": "Žabjak",
                "arrival_time": "10:59:00",
                "departure_time": "10:59:00",
                "latitude": 45.926942903200000500874011777341365814208984375,
                "longitude": 16.7320263930999999502091668546199798583984375,
                "sequence": 14
            },
            {
                "stop_id": "i-o610",
                "stop_name": "Rovišće",
                "arrival_time": "11:01:00",
                "departure_time": "11:01:00",
                "latitude": 45.93203374689999662905393051914870738983154296875,
                "longitude": 16.71867141850000137992537929676473140716552734375,
                "sequence": 15
            },
            {
                "stop_id": "i-o614",
                "stop_name": "Hrsovo",
                "arrival_time": "11:04:00",
                "departure_time": "11:04:00",
                "latitude": 45.93625843289999721719141234643757343292236328125,
                "longitude": 16.68785100150000033636388252489268779754638671875,
                "sequence": 16
            },
            {
                "stop_id": "i-o609",
                "stop_name": "Cirkvena",
                "arrival_time": "11:07:00",
                "departure_time": "11:07:00",
                "latitude": 45.9402749839999984260430210269987583160400390625,
                "longitude": 16.65913022459999837110444786958396434783935546875,
                "sequence": 17
            },
            {
                "stop_id": "i-o608",
                "stop_name": "Sveti Ivan Žabno",
                "arrival_time": "11:11:00",
                "departure_time": "11:12:00",
                "latitude": 45.94502779940000181113646249286830425262451171875,
                "longitude": 16.620957124099998480915019172243773937225341796875,
                "sequence": 18
            },
            {
                "stop_id": "i-o597",
                "stop_name": "Vrbovec",
                "arrival_time": "11:28:00",
                "departure_time": "11:29:00",
                "latitude": 45.8736124603999968485368299297988414764404296875,
                "longitude": 16.410386751699999052789280540309846401214599609375,
                "sequence": 19
            },
            {
                "stop_id": "i-o538",
                "stop_name": "Dugo Selo",
                "arrival_time": "11:46:00",
                "departure_time": "11:48:00",
                "latitude": 45.80135830559999732258802396245300769805908203125,
                "longitude": 16.234732410199999463884523720480501651763916015625,
                "sequence": 20
            },
            {
                "stop_id": "i-o515",
                "stop_name": "Maksimir",
                "arrival_time": "12:04:00",
                "departure_time": "12:05:00",
                "latitude": 45.81407876990000005434922059066593647003173828125,
                "longitude": 16.02374502400000011448355508036911487579345703125,
                "sequence": 21
            },
            {
                "stop_id": "i-o521",
                "stop_name": "Zagreb Glavni kolodvor",
                "arrival_time": "12:11:00",
                "departure_time": "12:11:00",
                "latitude": 45.8044511798999991469827364198863506317138671875,
                "longitude": 15.9788116194000000547248419024981558322906494140625,
                "sequence": 22
            }
        ],
        "calendar": [
            {
                "monday": 1,
                "tuesday": 1,
                "wednesday": 1,
                "thursday": 1,
                "friday": 1,
                "saturday": 1,
                "sunday": 1
            }
        ]
    },
    {
        "route_id": "i-tr110ez",
        "route_number": 1985,
        "route_src": "Split",
        "route_desc": "Osijek",
        "arrival_time": "18:49:00",
        "departure_time": "18:50:00",
        "bikes_allowed": 0,
        "wheelchair_accessible": 0,
        "route_type": 2,
        "stops": [
            {
                "stop_id": "i-o521",
                "stop_name": "Zagreb Glavni kolodvor",
                "arrival_time": "13:19:00",
                "departure_time": "13:19:00",
                "latitude": 45.8044511798999991469827364198863506317138671875,
                "longitude": 15.9788116194000000547248419024981558322906494140625,
                "sequence": 1
            },
            {
                "stop_id": "i-o515",
                "stop_name": "Maksimir",
                "arrival_time": "13:25:00",
                "departure_time": "13:26:00",
                "latitude": 45.81407876990000005434922059066593647003173828125,
                "longitude": 16.02374502400000011448355508036911487579345703125,
                "sequence": 2
            },
            {
                "stop_id": "i-o538",
                "stop_name": "Dugo Selo",
                "arrival_time": "13:42:00",
                "departure_time": "13:44:00",
                "latitude": 45.80135830559999732258802396245300769805908203125,
                "longitude": 16.234732410199999463884523720480501651763916015625,
                "sequence": 3
            },
            {
                "stop_id": "i-o597",
                "stop_name": "Vrbovec",
                "arrival_time": "14:01:00",
                "departure_time": "14:03:00",
                "latitude": 45.8736124603999968485368299297988414764404296875,
                "longitude": 16.410386751699999052789280540309846401214599609375,
                "sequence": 4
            },
            {
                "stop_id": "i-o608",
                "stop_name": "Sveti Ivan Žabno",
                "arrival_time": "14:19:00",
                "departure_time": "14:22:00",
                "latitude": 45.94502779940000181113646249286830425262451171875,
                "longitude": 16.620957124099998480915019172243773937225341796875,
                "sequence": 5
            },
            {
                "stop_id": "i-o610",
                "stop_name": "Rovišće",
                "arrival_time": "14:30:00",
                "departure_time": "14:30:00",
                "latitude": 45.93203374689999662905393051914870738983154296875,
                "longitude": 16.71867141850000137992537929676473140716552734375,
                "sequence": 6
            },
            {
                "stop_id": "i-o612",
                "stop_name": "Bjelovar",
                "arrival_time": "14:42:00",
                "departure_time": "14:44:00",
                "latitude": 45.8940714232000033234726288355886936187744140625,
                "longitude": 16.844665872299998454764136113226413726806640625,
                "sequence": 7
            },
            {
                "stop_id": "i-o618",
                "stop_name": "Grginac",
                "arrival_time": "14:49:00",
                "departure_time": "14:49:00",
                "latitude": 45.9093679925999964552829624153673648834228515625,
                "longitude": 16.893110007299998898133708280511200428009033203125,
                "sequence": 8
            },
            {
                "stop_id": "i-o619",
                "stop_name": "Grginac Novi",
                "arrival_time": "14:51:00",
                "departure_time": "14:51:00",
                "latitude": 45.9138711943000004112036549486219882965087890625,
                "longitude": 16.908371414499999474401192856021225452423095703125,
                "sequence": 9
            },
            {
                "stop_id": "i-o620",
                "stop_name": "Veliko Trojstvo",
                "arrival_time": "14:54:00",
                "departure_time": "14:54:00",
                "latitude": 45.93215374679999740692437626421451568603515625,
                "longitude": 16.924990162899998580314786522649228572845458984375,
                "sequence": 10
            },
            {
                "stop_id": "i-o621",
                "stop_name": "Mišulinovac",
                "arrival_time": "14:58:00",
                "departure_time": "14:58:00",
                "latitude": 45.9347418740999984265727107413113117218017578125,
                "longitude": 16.9449073884999990013966453261673450469970703125,
                "sequence": 11
            },
            {
                "stop_id": "i-o622",
                "stop_name": "Paulovac",
                "arrival_time": "15:03:00",
                "departure_time": "15:03:00",
                "latitude": 45.93844228270000229485958698205649852752685546875,
                "longitude": 16.97437660519999980124339344911277294158935546875,
                "sequence": 12
            },
            {
                "stop_id": "i-o624",
                "stop_name": "Sirova Katalena",
                "arrival_time": "15:15:00",
                "departure_time": "15:15:00",
                "latitude": 45.9592075842000014063160051591694355010986328125,
                "longitude": 17.068270051300000744731732993386685848236083984375,
                "sequence": 13
            },
            {
                "stop_id": "i-o582",
                "stop_name": "Kloštar",
                "arrival_time": "15:25:00",
                "departure_time": "15:31:00",
                "latitude": 45.98144457779999783042512717656791210174560546875,
                "longitude": 17.139272198099998689713174826465547084808349609375,
                "sequence": 14
            },
            {
                "stop_id": "i-o581",
                "stop_name": "Pitomača",
                "arrival_time": "15:40:00",
                "departure_time": "15:41:00",
                "latitude": 45.94256768630000209441277547739446163177490234375,
                "longitude": 17.229547902200000208949859370477497577667236328125,
                "sequence": 15
            },
            {
                "stop_id": "i-o580",
                "stop_name": "Vukosavljevica",
                "arrival_time": "15:47:00",
                "departure_time": "15:47:00",
                "latitude": 45.87493072230000024092078092508018016815185546875,
                "longitude": 17.253805327799998536875136778689920902252197265625,
                "sequence": 16
            },
            {
                "stop_id": "i-o579",
                "stop_name": "Špišić Bukovica",
                "arrival_time": "15:52:00",
                "departure_time": "15:52:00",
                "latitude": 45.84584561930000035090415622107684612274169921875,
                "longitude": 17.298768283200001150134994531981647014617919921875,
                "sequence": 17
            },
            {
                "stop_id": "i-o578",
                "stop_name": "Virovitica grad",
                "arrival_time": "16:00:00",
                "departure_time": "16:00:00",
                "latitude": 45.826843351500002654574927873909473419189453125,
                "longitude": 17.3860479402000009940820746123790740966796875,
                "sequence": 18
            },
            {
                "stop_id": "i-o577",
                "stop_name": "Virovitica",
                "arrival_time": "16:02:00",
                "departure_time": "16:04:00",
                "latitude": 45.8251167677999973193436744622886180877685546875,
                "longitude": 17.398593959500001204787622555159032344818115234375,
                "sequence": 19
            },
            {
                "stop_id": "i-o576",
                "stop_name": "Suhopolje",
                "arrival_time": "16:12:00",
                "departure_time": "16:12:00",
                "latitude": 45.79404302780000080019817687571048736572265625,
                "longitude": 17.486884425700001344239353784359991550445556640625,
                "sequence": 20
            },
            {
                "stop_id": "i-o575",
                "stop_name": "Pčelić",
                "arrival_time": "16:17:00",
                "departure_time": "16:17:00",
                "latitude": 45.78008822080000328469395753927528858184814453125,
                "longitude": 17.525585444099998966294151614420115947723388671875,
                "sequence": 21
            },
            {
                "stop_id": "i-o688",
                "stop_name": "Cabuna",
                "arrival_time": "16:24:00",
                "departure_time": "16:24:00",
                "latitude": 45.75813110259999660911489627324044704437255859375,
                "longitude": 17.58138233540000072707698564045131206512451171875,
                "sequence": 22
            },
            {
                "stop_id": "i-o687",
                "stop_name": "Podravska Bistrica",
                "arrival_time": "16:29:00",
                "departure_time": "16:29:00",
                "latitude": 45.742719936800000368748442269861698150634765625,
                "longitude": 17.6089696169999996300248312763869762420654296875,
                "sequence": 23
            },
            {
                "stop_id": "i-o686",
                "stop_name": "Sladojevci",
                "arrival_time": "16:33:00",
                "departure_time": "16:33:00",
                "latitude": 45.726885975800001915558823384344577789306640625,
                "longitude": 17.63881054630000022598323994316160678863525390625,
                "sequence": 24
            },
            {
                "stop_id": "i-o685",
                "stop_name": "Slatina",
                "arrival_time": "16:40:00",
                "departure_time": "16:41:00",
                "latitude": 45.70557191719999678980457247234880924224853515625,
                "longitude": 17.706264645800001034103843267075717449188232421875,
                "sequence": 25
            },
            {
                "stop_id": "i-o684",
                "stop_name": "Nova Bukovica",
                "arrival_time": "16:50:00",
                "departure_time": "16:50:00",
                "latitude": 45.662570600999998760016751475632190704345703125,
                "longitude": 17.777311170699999109956479514949023723602294921875,
                "sequence": 26
            },
            {
                "stop_id": "i-o683",
                "stop_name": "Mikleuš",
                "arrival_time": "16:56:00",
                "departure_time": "16:56:00",
                "latitude": 45.616791941499997165010427124798297882080078125,
                "longitude": 17.812246150899998298200443969108164310455322265625,
                "sequence": 27
            },
            {
                "stop_id": "i-o682",
                "stop_name": "Čačinci",
                "arrival_time": "17:03:00",
                "departure_time": "17:04:00",
                "latitude": 45.59862178910000096720978035591542720794677734375,
                "longitude": 17.86896726250000000391082721762359142303466796875,
                "sequence": 28
            },
            {
                "stop_id": "i-o681",
                "stop_name": "Zdenci-Orahovica",
                "arrival_time": "17:12:00",
                "departure_time": "17:12:00",
                "latitude": 45.5685962207000017087921150960028171539306640625,
                "longitude": 17.929177415000001616363078937865793704986572265625,
                "sequence": 29
            },
            {
                "stop_id": "i-o680",
                "stop_name": "Feričanci",
                "arrival_time": "17:19:00",
                "departure_time": "17:19:00",
                "latitude": 45.53819017859999718211838626302778720855712890625,
                "longitude": 17.980920855600000862750675878487527370452880859375,
                "sequence": 30
            },
            {
                "stop_id": "i-o679",
                "stop_name": "Đurđenovac",
                "arrival_time": "17:25:00",
                "departure_time": "17:33:00",
                "latitude": 45.5374044048000001794207491911947727203369140625,
                "longitude": 18.0380619772000017064783605746924877166748046875,
                "sequence": 31
            },
            {
                "stop_id": "i-o678",
                "stop_name": "Velimirovac",
                "arrival_time": "17:40:00",
                "departure_time": "17:40:00",
                "latitude": 45.51253479889999908891695667989552021026611328125,
                "longitude": 18.09505245209999912958664936013519763946533203125,
                "sequence": 32
            },
            {
                "stop_id": "i-o677",
                "stop_name": "Našice",
                "arrival_time": "17:48:00",
                "departure_time": "17:49:00",
                "latitude": 45.4964953679999979385684127919375896453857421875,
                "longitude": 18.124366400100001328610233031213283538818359375,
                "sequence": 33
            },
            {
                "stop_id": "i-o477",
                "stop_name": "Jelisavac",
                "arrival_time": "17:55:00",
                "departure_time": "17:55:00",
                "latitude": 45.5233923320000002377128112129867076873779296875,
                "longitude": 18.154817092399998301743835327215492725372314453125,
                "sequence": 34
            },
            {
                "stop_id": "i-o476",
                "stop_name": "Našička Breznica",
                "arrival_time": "17:59:00",
                "departure_time": "17:59:00",
                "latitude": 45.531508697600003188199480064213275909423828125,
                "longitude": 18.190746849300001741767118801362812519073486328125,
                "sequence": 35
            },
            {
                "stop_id": "i-o475",
                "stop_name": "Niza",
                "arrival_time": "18:04:00",
                "departure_time": "18:04:00",
                "latitude": 45.5427803054000008842194802127778530120849609375,
                "longitude": 18.23455434830000143620054586790502071380615234375,
                "sequence": 36
            },
            {
                "stop_id": "i-o474",
                "stop_name": "Koška",
                "arrival_time": "18:10:00",
                "departure_time": "18:17:00",
                "latitude": 45.541517446699998572512413375079631805419921875,
                "longitude": 18.295376232799998916789263603277504444122314453125,
                "sequence": 37
            },
            {
                "stop_id": "i-o473",
                "stop_name": "Normanci",
                "arrival_time": "18:24:00",
                "departure_time": "18:24:00",
                "latitude": 45.557331556299999419934465549886226654052734375,
                "longitude": 18.36649055619999870714309508912265300750732421875,
                "sequence": 38
            },
            {
                "stop_id": "i-o472",
                "stop_name": "Cret",
                "arrival_time": "18:29:00",
                "departure_time": "18:29:00",
                "latitude": 45.57359335950000200909926206804811954498291015625,
                "longitude": 18.409764216999999320023562177084386348724365234375,
                "sequence": 39
            },
            {
                "stop_id": "i-o471",
                "stop_name": "Bizovac",
                "arrival_time": "18:35:00",
                "departure_time": "18:36:00",
                "latitude": 45.5871337927000013223732821643352508544921875,
                "longitude": 18.453009380899999314351589418947696685791015625,
                "sequence": 40
            },
            {
                "stop_id": "i-o470",
                "stop_name": "Samatovci",
                "arrival_time": "18:41:00",
                "departure_time": "18:41:00",
                "latitude": 45.5907846148000004404821083880960941314697265625,
                "longitude": 18.502574138699998229640186764299869537353515625,
                "sequence": 41
            },
            {
                "stop_id": "i-o469",
                "stop_name": "Josipovac",
                "arrival_time": "18:49:00",
                "departure_time": "18:50:00",
                "latitude": 45.57415808260000034124459489248692989349365234375,
                "longitude": 18.590060619599999114370802999474108219146728515625,
                "sequence": 42
            },
            {
                "stop_id": "i-o479",
                "stop_name": "Višnjevac IPK",
                "arrival_time": "18:54:00",
                "departure_time": "18:54:00",
                "latitude": 45.56636944760000318410675390623509883880615234375,
                "longitude": 18.606608153399999849852974875830113887786865234375,
                "sequence": 43
            },
            {
                "stop_id": "i-o478",
                "stop_name": "Višnjevac",
                "arrival_time": "18:56:00",
                "departure_time": "18:56:00",
                "latitude": 45.56142222390000284804045804776251316070556640625,
                "longitude": 18.6198483364999987088594934903085231781005859375,
                "sequence": 44
            },
            {
                "stop_id": "i-o480",
                "stop_name": "Frigis - Osijek",
                "arrival_time": "18:58:00",
                "departure_time": "18:58:00",
                "latitude": 45.55844677590000202371811610646545886993408203125,
                "longitude": 18.635722211000000925196218304336071014404296875,
                "sequence": 45
            },
            {
                "stop_id": "i-o481",
                "stop_name": "Petrove Gore",
                "arrival_time": "19:00:00",
                "departure_time": "19:00:00",
                "latitude": 45.5556595584999968195916153490543365478515625,
                "longitude": 18.650540433900001602296470082364976406097412109375,
                "sequence": 46
            },
            {
                "stop_id": "i-o482",
                "stop_name": "Vodovod",
                "arrival_time": "19:02:00",
                "departure_time": "19:03:00",
                "latitude": 45.5523506011000023363521904684603214263916015625,
                "longitude": 18.66817007510000081538237282074987888336181640625,
                "sequence": 47
            },
            {
                "stop_id": "i-o483",
                "stop_name": "Osijek",
                "arrival_time": "19:07:00",
                "departure_time": "19:07:00",
                "latitude": 45.5527370154999999840583768673241138458251953125,
                "longitude": 18.683408254700001549508669995702803134918212890625,
                "sequence": 48
            }
        ],
        "calendar": [
            {
                "monday": 0,
                "tuesday": 0,
                "wednesday": 0,
                "thursday": 0,
                "friday": 0,
                "saturday": 1,
                "sunday": 1
            }
        ]
    },
    {
        "route_id": "i-tr119ai",
        "route_number": 2010,
        "route_src": "Tovarnik",
        "route_desc": "Zagreb Glavni kolodvor",
        "arrival_time": "08:11:00",
        "departure_time": "08:11:00",
        "bikes_allowed": 1,
        "wheelchair_accessible": 2,
        "route_type": 2,
        "stops": [
            {
                "stop_id": "i-o539",
                "stop_name": "Novska",
                "arrival_time": "06:01:00",
                "departure_time": "06:03:00",
                "latitude": 45.32688757679999724814479122869670391082763671875,
                "longitude": 16.976728271199998943075115676037967205047607421875,
                "sequence": 1
            },
            {
                "stop_id": "i-o522",
                "stop_name": "Stara Subocka",
                "arrival_time": "06:10:00",
                "departure_time": "06:10:00",
                "latitude": 45.3641343386999977838058839552104473114013671875,
                "longitude": 16.911436963900001728688948787748813629150390625,
                "sequence": 2
            },
            {
                "stop_id": "i-o523",
                "stop_name": "Lipovljani",
                "arrival_time": "06:13:00",
                "departure_time": "06:14:00",
                "latitude": 45.38677948840000198060806724242866039276123046875,
                "longitude": 16.882378146899998938579301466234028339385986328125,
                "sequence": 3
            },
            {
                "stop_id": "i-o524",
                "stop_name": "Banova Jaruga",
                "arrival_time": "06:21:00",
                "departure_time": "06:22:00",
                "latitude": 45.44571452630000152339562191627919673919677734375,
                "longitude": 16.876182303499998482720911852084100246429443359375,
                "sequence": 4
            },
            {
                "stop_id": "i-o525",
                "stop_name": "Ilova",
                "arrival_time": "06:26:00",
                "departure_time": "06:26:00",
                "latitude": 45.450704738799998949616565369069576263427734375,
                "longitude": 16.834316436099999947373362374491989612579345703125,
                "sequence": 5
            },
            {
                "stop_id": "i-o526",
                "stop_name": "Kutina",
                "arrival_time": "06:31:00",
                "departure_time": "06:32:00",
                "latitude": 45.4748505749000031528339604847133159637451171875,
                "longitude": 16.77448922490000171592328115366399288177490234375,
                "sequence": 6
            },
            {
                "stop_id": "i-o527",
                "stop_name": "Repušnica",
                "arrival_time": "06:36:00",
                "departure_time": "06:36:00",
                "latitude": 45.48918407459999713182696723379194736480712890625,
                "longitude": 16.729116774000001299782525165937840938568115234375,
                "sequence": 7
            },
            {
                "stop_id": "i-o528",
                "stop_name": "Moslavačka Gračenica",
                "arrival_time": "06:40:00",
                "departure_time": "06:45:00",
                "latitude": 45.51401890540000039209189708344638347625732421875,
                "longitude": 16.6892025289999992310185916721820831298828125,
                "sequence": 8
            },
            {
                "stop_id": "i-o529",
                "stop_name": "Voloder",
                "arrival_time": "06:50:00",
                "departure_time": "06:50:00",
                "latitude": 45.53757426039999955946768750436604022979736328125,
                "longitude": 16.657902857100001625667573534883558750152587890625,
                "sequence": 9
            },
            {
                "stop_id": "i-o530",
                "stop_name": "Popovača",
                "arrival_time": "06:55:00",
                "departure_time": "06:56:00",
                "latitude": 45.5592216191000005665046046487987041473388671875,
                "longitude": 16.623521688800000362107311957515776157379150390625,
                "sequence": 10
            },
            {
                "stop_id": "i-o531",
                "stop_name": "Ludina",
                "arrival_time": "07:06:00",
                "departure_time": "07:06:00",
                "latitude": 45.6005568377999992435434251092374324798583984375,
                "longitude": 16.56963411459999946373500279150903224945068359375,
                "sequence": 11
            },
            {
                "stop_id": "i-o532",
                "stop_name": "Novoselec",
                "arrival_time": "07:16:00",
                "departure_time": "07:21:00",
                "latitude": 45.64926783349999794836548971943557262420654296875,
                "longitude": 16.52990336890000122593846754170954227447509765625,
                "sequence": 12
            },
            {
                "stop_id": "i-o533",
                "stop_name": "Širinec",
                "arrival_time": "07:27:00",
                "departure_time": "07:27:00",
                "latitude": 45.67138863939999993135643308050930500030517578125,
                "longitude": 16.4908810579999993706223904155194759368896484375,
                "sequence": 13
            },
            {
                "stop_id": "i-o534",
                "stop_name": "Deanovec",
                "arrival_time": "07:33:00",
                "departure_time": "07:34:00",
                "latitude": 45.6894670459000025175555492751300334930419921875,
                "longitude": 16.459962527100000073687624535523355007171630859375,
                "sequence": 14
            },
            {
                "stop_id": "i-o535",
                "stop_name": "Ivanić Grad",
                "arrival_time": "07:42:00",
                "departure_time": "07:43:00",
                "latitude": 45.70735002250000178491973201744258403778076171875,
                "longitude": 16.39778120140000083893028204329311847686767578125,
                "sequence": 15
            },
            {
                "stop_id": "i-o536",
                "stop_name": "Prečec stajalište",
                "arrival_time": "07:51:00",
                "departure_time": "07:51:00",
                "latitude": 45.75973040659999924173462204635143280029296875,
                "longitude": 16.350622230300000836678009363822638988494873046875,
                "sequence": 16
            },
            {
                "stop_id": "i-o537",
                "stop_name": "Ostrna",
                "arrival_time": "08:00:00",
                "departure_time": "08:00:00",
                "latitude": 45.7941134491999974898135405965149402618408203125,
                "longitude": 16.271115402300001306912236032076179981231689453125,
                "sequence": 17
            },
            {
                "stop_id": "i-o538",
                "stop_name": "Dugo Selo",
                "arrival_time": "08:04:00",
                "departure_time": "08:05:00",
                "latitude": 45.80135830559999732258802396245300769805908203125,
                "longitude": 16.234732410199999463884523720480501651763916015625,
                "sequence": 18
            },
            {
                "stop_id": "i-o511",
                "stop_name": "Sesvetski Kraljevec",
                "arrival_time": "08:11:00",
                "departure_time": "08:11:00",
                "latitude": 45.810725353099996937089599668979644775390625,
                "longitude": 16.16888061019999867085061850957572460174560546875,
                "sequence": 19
            },
            {
                "stop_id": "i-o512",
                "stop_name": "Sesvete",
                "arrival_time": "08:16:00",
                "departure_time": "08:17:00",
                "latitude": 45.82484511770000068509034463204443454742431640625,
                "longitude": 16.10990763699999916980232228524982929229736328125,
                "sequence": 20
            },
            {
                "stop_id": "i-o517",
                "stop_name": "Sesvetska Sopnica",
                "arrival_time": "08:20:00",
                "departure_time": "08:20:00",
                "latitude": 45.82486000000000103682396002113819122314453125,
                "longitude": 16.0874400000000008503775461576879024505615234375,
                "sequence": 21
            },
            {
                "stop_id": "i-o513",
                "stop_name": "Čulinec",
                "arrival_time": "08:23:00",
                "departure_time": "08:23:00",
                "latitude": 45.82084424509999820429584360681474208831787109375,
                "longitude": 16.0636177662999983795089065097272396087646484375,
                "sequence": 22
            },
            {
                "stop_id": "i-o514",
                "stop_name": "Trnava",
                "arrival_time": "08:25:00",
                "departure_time": "08:25:00",
                "latitude": 45.81844526910000325869987136684358119964599609375,
                "longitude": 16.04940267239999940329653327353298664093017578125,
                "sequence": 23
            },
            {
                "stop_id": "i-o515",
                "stop_name": "Maksimir",
                "arrival_time": "08:28:00",
                "departure_time": "08:29:00",
                "latitude": 45.81407876990000005434922059066593647003173828125,
                "longitude": 16.02374502400000011448355508036911487579345703125,
                "sequence": 24
            },